{
    "Entreprenad": [
        {
            "name": "Ahmet Ogur",
            "phone": "072-834 43 79",
            "location": "Sandviken"
        },
        {
            "name": "Daniel Moreno",
            "phone": "073-081 87 47",
            "location": "Sandviken"
        },
        {
            "name": "Oskar Hedblad",
            "phone": "072-218 94 99",
            "location": "Sandviken"
        },
        {
            "name": "Jimmy Larsson",
            "phone": "073-800 60 03",
            "location": "Sandviken"
        },
        {
            "name": "Alexander Seger",
            "phone": "070-494 09 49",
            "location": "Sandviken"
        },
        {
            "name": "William Ali",
            "phone": "072-902 21 98",
            "location": "Södertälje"
        },
        {
            "name": "Joonas Ahonen",
            "phone": "079-339 85 40",
            "location": "Södertälje"
        },
        {
            "name": "Rasmus Adolfsson",
            "phone": "070-588 80 35",
            "location": "Borlänge"
        },
        {
            "name": "Martin Wikner",
            "phone": "070-460 67 24",
            "location": "Borlänge"
        },
        {
            "name": "Kent Sollien",
            "phone": "070-298 60 87",
            "location": "Motus-envy"
        },
        {
            "name": "Fredric Carlström-Stridh",
            "phone": "070-410 93 94",
            "location": "Motus-envy"
        }
    ],
    "Försäljning": [
        {
            "name": "Klas Abrahamsson",
            "phone": "070-813 60 69",
            "location": "Gävleborg"
        },
        {
            "name": "Marcus Huld",
            "phone": "070-813 60 64",
            "location": "Stockholm"
        },
        {
            "name": "Michael Klingvall",
            "phone": "070-813 61 15",
            "location": "Stockholm"
        },
        {
            "name": "Tony Bejedal",
            "phone": "070-518 93 01",
            "location": "Södertälje"
        },
        {
            "name": "Johan Borres",
            "phone": "070-290 06 05",
            "location": "Borlänge"
        }
    ],
    "Företagsledning": [
        {
            "name": "Andreas Östlund",
            "role": "VD"
        },
        {
            "name": "Marcus Huld",
            "phone": "070-813 60 64",
            "role": "Operativ chef / Ledning"
        },
        {
            "name": "Johan Borres",
            "phone": "070-290 06 05",
            "role": "Säljare / Ledning"
        },
        {
            "name": "Patrik Vall",
            "phone": "070-694 31 30",
            "role": "Entreprenadchef / Ledning"
        }
    ],
    "Adresser": [
        {
            "name": "Rosersberg",
            "address": "västerbytorp 111, 195 96 Rosersberg"
        },
        {
            "name": "Södertälje",
            "address": "Sydhamnsvägen 46, 15138 Södertälje"
        },
        {
            "name": "Borlänge",
            "address": "Nygårdsvägen 31, 781 70 Borlänge"
        },
        {
            "name": "Sandviken(Sågen)",
            "address": "Kärråsvägen 73, 811 91 Sandviken"
        },
        {
            "name": "Sandviken(kontor och lager)",
            "address": "Spångvägen 9, 811 32 Sandviken"
        }
    ]
}
